var trams = {
"type": "FeatureCollection",
"crs": { "type": "name", "properties": { "name": "urn:ogc:def:crs:OGC:1.3:CRS84" } },
                                                                                
"features": [
{ "type": "Feature", "properties": { "id": 49.000000, "osm_id": 21372317.000000, "name": "Mölnlycke", "type": "station", "ref": "Myk" }, "geometry": { "type": "Point", "coordinates": [ 12.117892642138372, 57.656873166679588 ] } },
{ "type": "Feature", "properties": { "id": 92.000000, "osm_id": 29284154.000000, "name": "Mölndal station", "type": "station", "ref": "Mdn" }, "geometry": { "type": "Point", "coordinates": [ 12.018854588811081, 57.655919557555535 ] } },
{ "type": "Feature", "properties": { "id": 114.000000, "osm_id": 30486750.000000, "name": "Majvallen", "type": "tram_stop", "ref": "B" }, "geometry": { "type": "Point", "coordinates": [ 11.93560049734981, 57.691069319970751 ] } },
{ "type": "Feature", "properties": { "id": 117.000000, "osm_id": 31098715.000000, "name": "Prinsgatan", "type": "tram_stop", "ref": "A" }, "geometry": { "type": "Point", "coordinates": [ 11.951360319334725, 57.696501631417476 ] } },
{ "type": "Feature", "properties": { "id": 120.000000, "osm_id": 33541076.000000, "name": "Linnéplatsen", "type": "tram_stop", "ref": "A" }, "geometry": { "type": "Point", "coordinates": [ 11.952050317603977, 57.690086625642699 ] } },
{ "type": "Feature", "properties": { "id": 129.000000, "osm_id": 60142111.000000, "name": "Hjällbo", "type": "tram_stop", "ref": "A" }, "geometry": { "type": "Point", "coordinates": [ 12.02237482050589, 57.769264849047758 ] } },
{ "type": "Feature", "properties": { "id": 130.000000, "osm_id": 60142086.000000, "name": "Järntorget", "type": "tram_stop", "ref": "A" }, "geometry": { "type": "Point", "coordinates": [ 11.952598494071509, 57.700188495347426 ] } },
{ "type": "Feature", "properties": { "id": 143.000000, "osm_id": 60142114.000000, "name": "Storås", "type": "tram_stop", "ref": "B" }, "geometry": { "type": "Point", "coordinates": [ 12.046226028900321, 57.785138916372922 ] } },
{ "type": "Feature", "properties": { "id": 144.000000, "osm_id": 84670174.000000, "name": "Jaegerdorffsplatsen", "type": "tram_stop", "ref": "B" }, "geometry": { "type": "Point", "coordinates": [ 11.915044634188064, 57.69143334602559 ] } },
{ "type": "Feature", "properties": { "id": 146.000000, "osm_id": 84670169.000000, "name": "Chapmans Torg", "type": "tram_stop", "ref": "B" }, "geometry": { "type": "Point", "coordinates": [ 11.919344131420928, 57.694230973847787 ] } },
{ "type": "Feature", "properties": { "id": 167.000000, "osm_id": 91380481.000000, "name": "Dr Sydows Gata", "type": "tram_stop", "ref": null }, "geometry": { "type": "Point", "coordinates": [ 11.975187471667056, 57.680804841344468 ] } },
{ "type": "Feature", "properties": { "id": 171.000000, "osm_id": 91794511.000000, "name": "Korsvägen", "type": "tram_stop", "ref": null }, "geometry": { "type": "Point", "coordinates": [ 11.98628133961236, 57.69665149984624 ] } },
{ "type": "Feature", "properties": { "id": 182.000000, "osm_id": 94243780.000000, "name": "Axel Dahlströms torg", "type": "tram_stop", "ref": "C" }, "geometry": { "type": "Point", "coordinates": [ 11.927577591089232, 57.672269046428681 ] } },
{ "type": "Feature", "properties": { "id": 187.000000, "osm_id": 94229503.000000, "name": "Medicinaregatan", "type": "tram_stop", "ref": "A" }, "geometry": { "type": "Point", "coordinates": [ 11.964416558451006, 57.685446152588746 ] } },
{ "type": "Feature", "properties": { "id": 188.000000, "osm_id": 96544989.000000, "name": "Väderilsgatan", "type": "tram_stop", "ref": null }, "geometry": { "type": "Point", "coordinates": [ 11.893090334300839, 57.726628286898929 ] } },
{ "type": "Feature", "properties": { "id": 191.000000, "osm_id": 94229509.000000, "name": "Sahlgrenska Huvudentré", "type": "tram_stop", "ref": "A" }, "geometry": { "type": "Point", "coordinates": [ 11.961123560151236, 57.68359475781579 ] } },
{ "type": "Feature", "properties": { "id": 196.000000, "osm_id": 96546384.000000, "name": "Frihamnen", "type": "tram_stop", "ref": "B" }, "geometry": { "type": "Point", "coordinates": [ 11.960077247178079, 57.720325430988581 ] } },
{ "type": "Feature", "properties": { "id": 197.000000, "osm_id": 96546459.000000, "name": "Önskevädersgatan", "type": "tram_stop", "ref": null }, "geometry": { "type": "Point", "coordinates": [ 11.893085640435061, 57.720149997755144 ] } },
{ "type": "Feature", "properties": { "id": 198.000000, "osm_id": 96546500.000000, "name": "Varmfrontsgatan", "type": "tram_stop", "ref": "A" }, "geometry": { "type": "Point", "coordinates": [ 11.896134976809577, 57.736727893489771 ] } },
{ "type": "Feature", "properties": { "id": 199.000000, "osm_id": 96546390.000000, "name": "Hjalmar Brantingsplatsen", "type": "tram_stop", "ref": "B" }, "geometry": { "type": "Point", "coordinates": [ 11.953249684129075, 57.7205891256624 ] } },
{ "type": "Feature", "properties": { "id": 200.000000, "osm_id": 96546466.000000, "name": "Friskväderstorget", "type": "tram_stop", "ref": null }, "geometry": { "type": "Point", "coordinates": [ 11.893302564089199, 57.723361859232199 ] } },
{ "type": "Feature", "properties": { "id": 202.000000, "osm_id": 96546398.000000, "name": "Vågmästareplatsen", "type": "tram_stop", "ref": "B" }, "geometry": { "type": "Point", "coordinates": [ 11.945146060140928, 57.720558866991944 ] } },
{ "type": "Feature", "properties": { "id": 203.000000, "osm_id": 96546470.000000, "name": "Väderilsgatan", "type": "tram_stop", "ref": null }, "geometry": { "type": "Point", "coordinates": [ 11.893458635126279, 57.72675879313131 ] } },
{ "type": "Feature", "properties": { "id": 204.000000, "osm_id": 96546412.000000, "name": "Rambergsvallen", "type": "tram_stop", "ref": "B" }, "geometry": { "type": "Point", "coordinates": [ 11.927702397627485, 57.71951884044617 ] } },
{ "type": "Feature", "properties": { "id": 205.000000, "osm_id": 101344918.000000, "name": "Wieselgrensplatsen", "type": "tram_stop", "ref": "B" }, "geometry": { "type": "Point", "coordinates": [ 11.935595049112749, 57.720628520607328 ] } },
{ "type": "Feature", "properties": { "id": 207.000000, "osm_id": 96546416.000000, "name": "Gropegårdsgatan", "type": "tram_stop", "ref": null }, "geometry": { "type": "Point", "coordinates": [ 11.919151096190831, 57.718344116716395 ] } },
{ "type": "Feature", "properties": { "id": 209.000000, "osm_id": 96546423.000000, "name": "Eketrägatan", "type": "tram_stop", "ref": "B" }, "geometry": { "type": "Point", "coordinates": [ 11.910136526965772, 57.716701096056333 ] } },
{ "type": "Feature", "properties": { "id": 221.000000, "osm_id": 101463736.000000, "name": "Käringberget", "type": "tram_stop", "ref": "B" }, "geometry": { "type": "Point", "coordinates": [ 11.870585343375096, 57.669138573231422 ] } },
{ "type": "Feature", "properties": { "id": 222.000000, "osm_id": 101462493.000000, "name": "Hagen", "type": "tram_stop", "ref": "B" }, "geometry": { "type": "Point", "coordinates": [ 11.884110969069127, 57.67483592045658 ] } },
{ "type": "Feature", "properties": { "id": 226.000000, "osm_id": 124171107.000000, "name": "Krokslätts torg", "type": "tram_stop", "ref": "A" }, "geometry": { "type": "Point", "coordinates": [ 12.008050734715567, 57.675275635097023 ] } },
{ "type": "Feature", "properties": { "id": 324.000000, "osm_id": 137726100.000000, "name": "Scandinavium", "type": "tram_stop", "ref": "A" }, "geometry": { "type": "Point", "coordinates": [ 11.985818826195242, 57.70062368376017 ] } },
{ "type": "Feature", "properties": { "id": 327.000000, "osm_id": 137733018.000000, "name": "Nordstan", "type": "tram_stop", "ref": "B" }, "geometry": { "type": "Point", "coordinates": [ 11.970872132637197, 57.709186552223208 ] } },
{ "type": "Feature", "properties": { "id": 330.000000, "osm_id": 145124958.000000, "name": "Ekmanska", "type": "tram_stop", "ref": "A" }, "geometry": { "type": "Point", "coordinates": [ 12.009626867788313, 57.699669739359976 ] } },
{ "type": "Feature", "properties": { "id": 335.000000, "osm_id": 145124980.000000, "name": "Töpelsgatan", "type": "tram_stop", "ref": "B" }, "geometry": { "type": "Point", "coordinates": [ 12.022149934043739, 57.702334094921788 ] } },
{ "type": "Feature", "properties": { "id": 336.000000, "osm_id": 145124992.000000, "name": "Welandergatan", "type": "tram_stop", "ref": "A" }, "geometry": { "type": "Point", "coordinates": [ 12.023934441229386, 57.706077788155199 ] } },
{ "type": "Feature", "properties": { "id": 424.000000, "osm_id": 158631644.000000, "name": "Liseberg", "type": "station", "ref": "Lis" }, "geometry": { "type": "Point", "coordinates": [ 11.995544851361643, 57.697989670687925 ] } },
{ "type": "Feature", "properties": { "id": 520.000000, "osm_id": 207232897.000000, "name": "Wieselgrensplatsen", "type": "tram_stop", "ref": "D" }, "geometry": { "type": "Point", "coordinates": [ 11.935348369702353, 57.72078911787213 ] } },
{ "type": "Feature", "properties": { "id": 543.000000, "osm_id": 247822616.000000, "name": "Järntorget", "type": "tram_stop", "ref": "D" }, "geometry": { "type": "Point", "coordinates": [ 11.952971991676918, 57.699965117627841 ] } },
{ "type": "Feature", "properties": { "id": 547.000000, "osm_id": 248205023.000000, "name": "Axel Dahlströms torg", "type": "tram_stop", "ref": "A" }, "geometry": { "type": "Point", "coordinates": [ 11.928088635725715, 57.672438360872803 ] } },
{ "type": "Feature", "properties": { "id": 687.000000, "osm_id": 283253822.000000, "name": "Ullevi Norra", "type": "tram_stop", "ref": "B" }, "geometry": { "type": "Point", "coordinates": [ 11.986180086222021, 57.708063880112149 ] } },
{ "type": "Feature", "properties": { "id": 689.000000, "osm_id": 282928385.000000, "name": "Mariaplan", "type": "tram_stop", "ref": "A" }, "geometry": { "type": "Point", "coordinates": [ 11.920749441306981, 57.68673252326878 ] } },
{ "type": "Feature", "properties": { "id": 690.000000, "osm_id": 282929383.000000, "name": "Sannaplan", "type": "tram_stop", "ref": "B" }, "geometry": { "type": "Point", "coordinates": [ 11.91668379917269, 57.684303783005191 ] } },
{ "type": "Feature", "properties": { "id": 691.000000, "osm_id": 282929717.000000, "name": "Sandarna", "type": "tram_stop", "ref": "B" }, "geometry": { "type": "Point", "coordinates": [ 11.909844836735346, 57.682816917201265 ] } },
{ "type": "Feature", "properties": { "id": 694.000000, "osm_id": 282930012.000000, "name": "Vagnhallen Majorna", "type": "tram_stop", "ref": "B" }, "geometry": { "type": "Point", "coordinates": [ 11.912666688257728, 57.688985746479908 ] } },
{ "type": "Feature", "properties": { "id": 695.000000, "osm_id": 282930071.000000, "name": "Ostindiegatan", "type": "tram_stop", "ref": "B" }, "geometry": { "type": "Point", "coordinates": [ 11.915076569239147, 57.687830552584501 ] } },
{ "type": "Feature", "properties": { "id": 696.000000, "osm_id": 281040945.000000, "name": "Frölunda Torg", "type": "tram_stop", "ref": "B" }, "geometry": { "type": "Point", "coordinates": [ 11.911589362242838, 57.652789251996353 ] } },
{ "type": "Feature", "properties": { "id": 697.000000, "osm_id": 283253430.000000, "name": "Lilla Bommen", "type": "tram_stop", "ref": "B" }, "geometry": { "type": "Point", "coordinates": [ 11.966722922928225, 57.70922619862521 ] } },
{ "type": "Feature", "properties": { "id": 699.000000, "osm_id": 283254362.000000, "name": "Centralstationen", "type": "tram_stop", "ref": "C" }, "geometry": { "type": "Point", "coordinates": [ 11.973086799093693, 57.707637325059643 ] } },
{ "type": "Feature", "properties": { "id": 700.000000, "osm_id": 283255107.000000, "name": "Brunnsparken", "type": "tram_stop", "ref": "E" }, "geometry": { "type": "Point", "coordinates": [ 11.968935745366053, 57.706595454495201 ] } },
{ "type": "Feature", "properties": { "id": 701.000000, "osm_id": 283254029.000000, "name": "Centralstationen", "type": "tram_stop", "ref": null }, "geometry": { "type": "Point", "coordinates": [ 11.973495333054387, 57.707542358096717 ] } },
{ "type": "Feature", "properties": { "id": 702.000000, "osm_id": 283255032.000000, "name": "Brunnsparken", "type": "tram_stop", "ref": "D" }, "geometry": { "type": "Point", "coordinates": [ 11.969456848286342, 57.70716936340547 ] } },
{ "type": "Feature", "properties": { "id": 703.000000, "osm_id": 285732446.000000, "name": "Nya Varvsallén", "type": "tram_stop", "ref": "B" }, "geometry": { "type": "Point", "coordinates": [ 11.89506083591789, 57.67800427985614 ] } },
{ "type": "Feature", "properties": { "id": 705.000000, "osm_id": 285732591.000000, "name": "Långedrag", "type": "tram_stop", "ref": "B" }, "geometry": { "type": "Point", "coordinates": [ 11.853539318348226, 57.668237434821265 ] } },
{ "type": "Feature", "properties": { "id": 706.000000, "osm_id": 285732348.000000, "name": "Saltholmen", "type": "tram_stop", "ref": "B" }, "geometry": { "type": "Point", "coordinates": [ 11.84647437980135, 57.660660864904663 ] } },
{ "type": "Feature", "properties": { "id": 709.000000, "osm_id": 285732358.000000, "name": "Saltholmen", "type": "tram_stop", "ref": "A" }, "geometry": { "type": "Point", "coordinates": [ 11.845500151195465, 57.660631192967408 ] } },
{ "type": "Feature", "properties": { "id": 711.000000, "osm_id": 285732384.000000, "name": "Kungssten", "type": "tram_stop", "ref": "B" }, "geometry": { "type": "Point", "coordinates": [ 11.901773231617312, 57.680543661241579 ] } },
{ "type": "Feature", "properties": { "id": 712.000000, "osm_id": 285734295.000000, "name": "Centralstationen", "type": "tram_stop", "ref": null }, "geometry": { "type": "Point", "coordinates": [ 11.972962076374472, 57.707811920102749 ] } },
{ "type": "Feature", "properties": { "id": 832.000000, "osm_id": 311645221.000000, "name": "Wavrinskys Plats", "type": "tram_stop", "ref": null }, "geometry": { "type": "Point", "coordinates": [ 11.968281873099473, 57.689264193303316 ] } },
{ "type": "Feature", "properties": { "id": 837.000000, "osm_id": 312916056.000000, "name": "Positivgatan", "type": "tram_stop", "ref": "B" }, "geometry": { "type": "Point", "coordinates": [ 11.917566078300723, 57.656752383454844 ] } },
{ "type": "Feature", "properties": { "id": 842.000000, "osm_id": 312896172.000000, "name": "Smaragdgatan", "type": "tram_stop", "ref": "B" }, "geometry": { "type": "Point", "coordinates": [ 11.89936938560618, 57.645450895767937 ] } },
{ "type": "Feature", "properties": { "id": 844.000000, "osm_id": 312916199.000000, "name": "Nymilsgatan", "type": "tram_stop", "ref": "B" }, "geometry": { "type": "Point", "coordinates": [ 11.925118340698134, 57.662736140311395 ] } },
{ "type": "Feature", "properties": { "id": 845.000000, "osm_id": 312916223.000000, "name": "Lantmilsgatan", "type": "tram_stop", "ref": "B" }, "geometry": { "type": "Point", "coordinates": [ 11.924723636877673, 57.667145272837757 ] } },
{ "type": "Feature", "properties": { "id": 877.000000, "osm_id": 315544334.000000, "name": "Korsvägen", "type": "tram_stop", "ref": "C" }, "geometry": { "type": "Point", "coordinates": [ 11.986303551655766, 57.696825256699043 ] } },
{ "type": "Feature", "properties": { "id": 885.000000, "osm_id": 316083098.000000, "name": "Hagakyrkan", "type": "tram_stop", "ref": "A" }, "geometry": { "type": "Point", "coordinates": [ 11.962108852869278, 57.699548788497182 ] } },
{ "type": "Feature", "properties": { "id": 888.000000, "osm_id": 316145646.000000, "name": "Dr Sydows Gata", "type": "tram_stop", "ref": null }, "geometry": { "type": "Point", "coordinates": [ 11.975790717238453, 57.680891426404244 ] } },
{ "type": "Feature", "properties": { "id": 894.000000, "osm_id": 316131916.000000, "name": "Bokekullsgatan", "type": "tram_stop", "ref": "B" }, "geometry": { "type": "Point", "coordinates": [ 11.932778897284521, 57.677125018213239 ] } },
{ "type": "Feature", "properties": { "id": 895.000000, "osm_id": 316131919.000000, "name": "Högsbogatan", "type": "tram_stop", "ref": "B" }, "geometry": { "type": "Point", "coordinates": [ 11.930265080703748, 57.680112663780399 ] } },
{ "type": "Feature", "properties": { "id": 897.000000, "osm_id": 316137086.000000, "name": "Bögatan", "type": "tram_stop", "ref": "A" }, "geometry": { "type": "Point", "coordinates": [ 12.016461220178911, 57.701109666506184 ] } },
{ "type": "Feature", "properties": { "id": 898.000000, "osm_id": 316137581.000000, "name": "Bäckeliden", "type": "tram_stop", "ref": "A" }, "geometry": { "type": "Point", "coordinates": [ 12.003328286648582, 57.699914826208811 ] } },
{ "type": "Feature", "properties": { "id": 899.000000, "osm_id": 316137723.000000, "name": "Sankt Sigfrids Plan", "type": "tram_stop", "ref": "B" }, "geometry": { "type": "Point", "coordinates": [ 11.999496499612803, 57.698732139671016 ] } },
{ "type": "Feature", "properties": { "id": 900.000000, "osm_id": 316138159.000000, "name": "Olivedalsgatan", "type": "tram_stop", "ref": "A" }, "geometry": { "type": "Point", "coordinates": [ 11.95263378188389, 57.692449987061494 ] } },
{ "type": "Feature", "properties": { "id": 901.000000, "osm_id": 316138201.000000, "name": "Olivedalsgatan", "type": "tram_stop", "ref": "D" }, "geometry": { "type": "Point", "coordinates": [ 11.953201823461939, 57.69192854886505 ] } },
{ "type": "Feature", "properties": { "id": 902.000000, "osm_id": 316141189.000000, "name": "Vasa Viktoriagatan A", "type": "tram_stop", "ref": null }, "geometry": { "type": "Point", "coordinates": [ 11.966934230707238, 57.698161918798107 ] } },
{ "type": "Feature", "properties": { "id": 903.000000, "osm_id": 316141673.000000, "name": "Vasa Viktoriagatan läge B", "type": "tram_stop", "ref": "X" }, "geometry": { "type": "Point", "coordinates": [ 11.966086568839302, 57.698191423097278 ] } },
{ "type": "Feature", "properties": { "id": 904.000000, "osm_id": 316259001.000000, "name": "Valand", "type": "tram_stop", "ref": "A" }, "geometry": { "type": "Point", "coordinates": [ 11.974195389607418, 57.700456883887028 ] } },
{ "type": "Feature", "properties": { "id": 905.000000, "osm_id": 316259371.000000, "name": "Valand", "type": "tram_stop", "ref": "B" }, "geometry": { "type": "Point", "coordinates": [ 11.973691218131536, 57.700452525297386 ] } },
{ "type": "Feature", "properties": { "id": 906.000000, "osm_id": 316259560.000000, "name": "Valand", "type": "tram_stop", "ref": "D" }, "geometry": { "type": "Point", "coordinates": [ 11.975349745312485, 57.700080871710661 ] } },
{ "type": "Feature", "properties": { "id": 918.000000, "osm_id": 331415240.000000, "name": "Almedal", "type": "tram_stop", "ref": "A" }, "geometry": { "type": "Point", "coordinates": [ 11.996553278132467, 57.687546741343048 ] } },
{ "type": "Feature", "properties": { "id": 1013.000000, "osm_id": 409752621.000000, "name": "Sälöfjordsgatan", "type": "tram_stop", "ref": null }, "geometry": { "type": "Point", "coordinates": [ 11.901591344318433, 57.713492168245381 ] } },
{ "type": "Feature", "properties": { "id": 1014.000000, "osm_id": 409752624.000000, "name": "Vårväderstorget", "type": "tram_stop", "ref": "B" }, "geometry": { "type": "Point", "coordinates": [ 11.893176332627407, 57.712954385337788 ] } },
{ "type": "Feature", "properties": { "id": 1015.000000, "osm_id": 409752625.000000, "name": "Temperaturgatan", "type": "tram_stop", "ref": "B" }, "geometry": { "type": "Point", "coordinates": [ 11.895291254436131, 57.732568960773129 ] } },
{ "type": "Feature", "properties": { "id": 1212.000000, "osm_id": 594306667.000000, "name": "Storås", "type": "tram_stop", "ref": "A" }, "geometry": { "type": "Point", "coordinates": [ 12.046309261198815, 57.784963399320475 ] } },
{ "type": "Feature", "properties": { "id": 1214.000000, "osm_id": 594433186.000000, "name": "Hjällbo", "type": "tram_stop", "ref": "B" }, "geometry": { "type": "Point", "coordinates": [ 12.022299634834411, 57.769506750773303 ] } },
{ "type": "Feature", "properties": { "id": 1218.000000, "osm_id": 591286372.000000, "name": "Angered Centrum", "type": "tram_stop", "ref": "A" }, "geometry": { "type": "Point", "coordinates": [ 12.049316939514569, 57.795594334753496 ] } },
{ "type": "Feature", "properties": { "id": 1360.000000, "osm_id": 661147431.000000, "name": "Stigbergstorget", "type": "tram_stop", "ref": "B" }, "geometry": { "type": "Point", "coordinates": [ 11.933889583274038, 57.699030283966898 ] } },
{ "type": "Feature", "properties": { "id": 1362.000000, "osm_id": 661152382.000000, "name": "Godhemsgatan", "type": "tram_stop", "ref": "D" }, "geometry": { "type": "Point", "coordinates": [ 11.926132550982116, 57.685321178412451 ] } },
{ "type": "Feature", "properties": { "id": 1363.000000, "osm_id": 661152398.000000, "name": "Godhemsgatan", "type": "tram_stop", "ref": "B" }, "geometry": { "type": "Point", "coordinates": [ 11.925998524350375, 57.684442922597903 ] } },
{ "type": "Feature", "properties": { "id": 1364.000000, "osm_id": 661152446.000000, "name": "Ekedal", "type": "tram_stop", "ref": "A" }, "geometry": { "type": "Point", "coordinates": [ 11.929248942582037, 57.687132675326289 ] } },
{ "type": "Feature", "properties": { "id": 1365.000000, "osm_id": 661152456.000000, "name": "Ekedal", "type": "tram_stop", "ref": "B" }, "geometry": { "type": "Point", "coordinates": [ 11.927674653527987, 57.686353325969201 ] } },
{ "type": "Feature", "properties": { "id": 1366.000000, "osm_id": 661206876.000000, "name": "Welandergatan", "type": "tram_stop", "ref": "B" }, "geometry": { "type": "Point", "coordinates": [ 12.024146084284524, 57.705759359653612 ] } },
{ "type": "Feature", "properties": { "id": 1430.000000, "osm_id": 705125071.000000, "name": "Hammarkullen", "type": "tram_stop", "ref": "A" }, "geometry": { "type": "Point", "coordinates": [ 12.036499752276796, 57.779692355690756 ] } },
{ "type": "Feature", "properties": { "id": 1431.000000, "osm_id": 705125094.000000, "name": "Hammarkullen", "type": "tram_stop", "ref": "B" }, "geometry": { "type": "Point", "coordinates": [ 12.036600838029074, 57.780040539948594 ] } },
{ "type": "Feature", "properties": { "id": 1483.000000, "osm_id": 738267094.000000, "name": "Axel Dahlströms torg", "type": "tram_stop", "ref": "D" }, "geometry": { "type": "Point", "coordinates": [ 11.927419843671515, 57.672488819929917 ] } },
{ "type": "Feature", "properties": { "id": 1542.000000, "osm_id": 955310924.000000, "name": "Tranered", "type": "tram_stop", "ref": "B" }, "geometry": { "type": "Point", "coordinates": [ 11.879494384439198, 57.672527460503524 ] } },
{ "type": "Feature", "properties": { "id": 1646.000000, "osm_id": 1072965354.000000, "name": "Marklandsgatan", "type": "tram_stop", "ref": "J" }, "geometry": { "type": "Point", "coordinates": [ 11.936581682935326, 57.674875147763423 ] } },
{ "type": "Feature", "properties": { "id": 1751.000000, "osm_id": 1267180391.000000, "name": "Kortedala Torg", "type": "tram_stop", "ref": "B" }, "geometry": { "type": "Point", "coordinates": [ 12.033040289379983, 57.752778986609961 ] } },
{ "type": "Feature", "properties": { "id": 1752.000000, "osm_id": 1267180568.000000, "name": "Galileis Gata", "type": "tram_stop", "ref": "B" }, "geometry": { "type": "Point", "coordinates": [ 12.051445942920651, 57.760533588149968 ] } },
{ "type": "Feature", "properties": { "id": 1753.000000, "osm_id": 1267180690.000000, "name": "Januarigatan", "type": "tram_stop", "ref": "B" }, "geometry": { "type": "Point", "coordinates": [ 12.041213483164483, 57.760244663947589 ] } },
{ "type": "Feature", "properties": { "id": 1754.000000, "osm_id": 1267180415.000000, "name": "Januarigatan", "type": "tram_stop", "ref": "A" }, "geometry": { "type": "Point", "coordinates": [ 12.041275173971854, 57.760349521556286 ] } },
{ "type": "Feature", "properties": { "id": 1755.000000, "osm_id": 1267180634.000000, "name": "Aprilgatan", "type": "tram_stop", "ref": "B" }, "geometry": { "type": "Point", "coordinates": [ 12.041586226398609, 57.76098269052202 ] } },
{ "type": "Feature", "properties": { "id": 1756.000000, "osm_id": 1267180835.000000, "name": "Galileis Gata", "type": "tram_stop", "ref": "A" }, "geometry": { "type": "Point", "coordinates": [ 12.051691197407507, 57.760510118821095 ] } },
{ "type": "Feature", "properties": { "id": 1757.000000, "osm_id": 1267180821.000000, "name": "Allhelgonakyrkan", "type": "tram_stop", "ref": "B" }, "geometry": { "type": "Point", "coordinates": [ 12.037442548745759, 57.757406467713992 ] } },
{ "type": "Feature", "properties": { "id": 1758.000000, "osm_id": 1267180782.000000, "name": "Allhelgonakyrkan", "type": "tram_stop", "ref": "A" }, "geometry": { "type": "Point", "coordinates": [ 12.037197126620839, 57.757227681719321 ] } },
{ "type": "Feature", "properties": { "id": 1759.000000, "osm_id": 1267180487.000000, "name": "Aprilgatan", "type": "tram_stop", "ref": "A" }, "geometry": { "type": "Point", "coordinates": [ 12.040999325538394, 57.760891243958369 ] } },
{ "type": "Feature", "properties": { "id": 1760.000000, "osm_id": 1267231066.000000, "name": "Teleskopgatan", "type": "tram_stop", "ref": "A" }, "geometry": { "type": "Point", "coordinates": [ 12.060024988456803, 57.759321816408189 ] } },
{ "type": "Feature", "properties": { "id": 1761.000000, "osm_id": 1267229045.000000, "name": "Rymdtorget", "type": "tram_stop", "ref": "B" }, "geometry": { "type": "Point", "coordinates": [ 12.066808378876088, 57.755898060418893 ] } },
{ "type": "Feature", "properties": { "id": 1763.000000, "osm_id": 1267229049.000000, "name": "Rymdtorget", "type": "tram_stop", "ref": "A" }, "geometry": { "type": "Point", "coordinates": [ 12.066919439093141, 57.755801249437248 ] } },
{ "type": "Feature", "properties": { "id": 1766.000000, "osm_id": 1267231068.000000, "name": "Teleskopgatan", "type": "tram_stop", "ref": "B" }, "geometry": { "type": "Point", "coordinates": [ 12.059789373158594, 57.759299939640883 ] } },
{ "type": "Feature", "properties": { "id": 1769.000000, "osm_id": 1271994730.000000, "name": "Komettorget", "type": "tram_stop", "ref": "A" }, "geometry": { "type": "Point", "coordinates": [ 12.071311388718016, 57.75114225237725 ] } },
{ "type": "Feature", "properties": { "id": 1772.000000, "osm_id": 1272031323.000000, "name": "Bellevue", "type": "tram_stop", "ref": "B" }, "geometry": { "type": "Point", "coordinates": [ 12.024610693177408, 57.732523698496017 ] } },
{ "type": "Feature", "properties": { "id": 1774.000000, "osm_id": 1271994731.000000, "name": "Komettorget", "type": "tram_stop", "ref": "B" }, "geometry": { "type": "Point", "coordinates": [ 12.07123285028527, 57.75110579109846 ] } },
{ "type": "Feature", "properties": { "id": 1775.000000, "osm_id": 1272284890.000000, "name": "Gamlestadstorget", "type": "tram_stop", "ref": "D" }, "geometry": { "type": "Point", "coordinates": [ 12.005221590937424, 57.728185057775335 ] } },
{ "type": "Feature", "properties": { "id": 1776.000000, "osm_id": 1272031437.000000, "name": "Nymånegatan", "type": "tram_stop", "ref": "B" }, "geometry": { "type": "Point", "coordinates": [ 12.02987369018007, 57.742751045291236 ] } },
{ "type": "Feature", "properties": { "id": 1777.000000, "osm_id": 1272284946.000000, "name": "Gamlestadstorget", "type": "tram_stop", "ref": "C" }, "geometry": { "type": "Point", "coordinates": [ 12.005530464069352, 57.727959919856097 ] } },
{ "type": "Feature", "properties": { "id": 1781.000000, "osm_id": 1275171641.000000, "name": "SKF", "type": "tram_stop", "ref": "A" }, "geometry": { "type": "Point", "coordinates": [ 12.013726624268543, 57.729231454567532 ] } },
{ "type": "Feature", "properties": { "id": 1782.000000, "osm_id": 1275935032.000000, "name": "Ejdergatan", "type": "tram_stop", "ref": "A" }, "geometry": { "type": "Point", "coordinates": [ 12.005842941419672, 57.720825076236729 ] } },
{ "type": "Feature", "properties": { "id": 1783.000000, "osm_id": 1275935022.000000, "name": "Ejdergatan", "type": "tram_stop", "ref": "B" }, "geometry": { "type": "Point", "coordinates": [ 12.005951989979962, 57.721022134780348 ] } },
{ "type": "Feature", "properties": { "id": 1784.000000, "osm_id": 1267180494.000000, "name": "Kortedala Torg", "type": "tram_stop", "ref": "A" }, "geometry": { "type": "Point", "coordinates": [ 12.033107763700542, 57.752912175051392 ] } },
{ "type": "Feature", "properties": { "id": 1785.000000, "osm_id": 1275929579.000000, "name": "Redbergsplatsen", "type": "tram_stop", "ref": "D" }, "geometry": { "type": "Point", "coordinates": [ 12.004693866313602, 57.71648626787799 ] } },
{ "type": "Feature", "properties": { "id": 1788.000000, "osm_id": 1277049016.000000, "name": "Härlanda", "type": "tram_stop", "ref": "A" }, "geometry": { "type": "Point", "coordinates": [ 12.019442579318707, 57.718106489761418 ] } },
{ "type": "Feature", "properties": { "id": 1789.000000, "osm_id": 1277049002.000000, "name": "Redbergsplatsen", "type": "tram_stop", "ref": "B" }, "geometry": { "type": "Point", "coordinates": [ 12.004906934292281, 57.716274960098964 ] } },
{ "type": "Feature", "properties": { "id": 1790.000000, "osm_id": 1277049020.000000, "name": "Östra Sjukhuset", "type": "tram_stop", "ref": "A" }, "geometry": { "type": "Point", "coordinates": [ 12.048315469723406, 57.722309343650707 ] } },
{ "type": "Feature", "properties": { "id": 1791.000000, "osm_id": 1277049022.000000, "name": "Härlanda", "type": "tram_stop", "ref": "B" }, "geometry": { "type": "Point", "coordinates": [ 12.019985726644338, 57.718175472824534 ] } },
{ "type": "Feature", "properties": { "id": 1792.000000, "osm_id": 1277049027.000000, "name": "Ättehögsgatan", "type": "tram_stop", "ref": "B" }, "geometry": { "type": "Point", "coordinates": [ 12.0283453339554, 57.719879262282639 ] } },
{ "type": "Feature", "properties": { "id": 1793.000000, "osm_id": 1277049024.000000, "name": "Tingvallsvägen", "type": "tram_stop", "ref": "A" }, "geometry": { "type": "Point", "coordinates": [ 12.042075394267812, 57.72464361986551 ] } },
{ "type": "Feature", "properties": { "id": 1794.000000, "osm_id": 1277049044.000000, "name": "Stockholmsgatan", "type": "tram_stop", "ref": "B" }, "geometry": { "type": "Point", "coordinates": [ 12.014105821568108, 57.717093620581949 ] } },
{ "type": "Feature", "properties": { "id": 1795.000000, "osm_id": 1277049048.000000, "name": "Munkebäckstorget", "type": "tram_stop", "ref": "A" }, "geometry": { "type": "Point", "coordinates": [ 12.025870493224405, 57.718271277977841 ] } },
{ "type": "Feature", "properties": { "id": 1796.000000, "osm_id": 1277049041.000000, "name": "Tingvallsvägen", "type": "tram_stop", "ref": "B" }, "geometry": { "type": "Point", "coordinates": [ 12.041750092605641, 57.724695420027089 ] } },
{ "type": "Feature", "properties": { "id": 1797.000000, "osm_id": 1277049049.000000, "name": "Kaggeledstorget", "type": "tram_stop", "ref": "B" }, "geometry": { "type": "Point", "coordinates": [ 12.033289148085203, 57.722935723274851 ] } },
{ "type": "Feature", "properties": { "id": 1798.000000, "osm_id": 1277049073.000000, "name": "Redbergsplatsen", "type": "tram_stop", "ref": "A" }, "geometry": { "type": "Point", "coordinates": [ 12.00513534115376, 57.716319551823894 ] } },
{ "type": "Feature", "properties": { "id": 1799.000000, "osm_id": 1277049070.000000, "name": "Munkebäckstorget", "type": "tram_stop", "ref": "B" }, "geometry": { "type": "Point", "coordinates": [ 12.026327139309302, 57.718516029550514 ] } },
{ "type": "Feature", "properties": { "id": 1800.000000, "osm_id": 1277049063.000000, "name": "Ättehögsgatan", "type": "tram_stop", "ref": "A" }, "geometry": { "type": "Point", "coordinates": [ 12.02853753099518, 57.720047654717362 ] } },
{ "type": "Feature", "properties": { "id": 1801.000000, "osm_id": 1277049083.000000, "name": "Stockholmsgatan", "type": "tram_stop", "ref": "A" }, "geometry": { "type": "Point", "coordinates": [ 12.013603745568018, 57.717056321112828 ] } },
{ "type": "Feature", "properties": { "id": 1802.000000, "osm_id": 1277523384.000000, "name": "Centralstationen", "type": "tram_stop", "ref": null }, "geometry": { "type": "Point", "coordinates": [ 11.973442694702443, 57.707784846555505 ] } },
{ "type": "Feature", "properties": { "id": 1803.000000, "osm_id": 1277049076.000000, "name": "Kaggeledstorget", "type": "tram_stop", "ref": "A" }, "geometry": { "type": "Point", "coordinates": [ 12.03293559940934, 57.72272693006682 ] } },
{ "type": "Feature", "properties": { "id": 1804.000000, "osm_id": 1272284947.000000, "name": "Gamlestadstorget", "type": "tram_stop", "ref": "B" }, "geometry": { "type": "Point", "coordinates": [ 12.008370336683583, 57.728121187673104 ] } },
{ "type": "Feature", "properties": { "id": 1806.000000, "osm_id": 1277542352.000000, "name": "Centralstationen", "type": "tram_stop", "ref": "B" }, "geometry": { "type": "Point", "coordinates": [ 11.973525340267742, 57.707587620373829 ] } },
{ "type": "Feature", "properties": { "id": 1807.000000, "osm_id": 1277542353.000000, "name": "Centralstationen", "type": "tram_stop", "ref": "D" }, "geometry": { "type": "Point", "coordinates": [ 11.973197775491712, 57.707697590943475 ] } },
{ "type": "Feature", "properties": { "id": 1843.000000, "osm_id": 1305188216.000000, "name": "Göteborg C", "type": "station", "ref": null }, "geometry": { "type": "Point", "coordinates": [ 11.9730035667952, 57.709181187805179 ] } },
{ "type": "Feature", "properties": { "id": 1868.000000, "osm_id": 1313438790.000000, "name": "Sanatoriegatan", "type": "tram_stop", "ref": "A" }, "geometry": { "type": "Point", "coordinates": [ 12.024076765945267, 57.713216068354868 ] } },
{ "type": "Feature", "properties": { "id": 1870.000000, "osm_id": 1313416106.000000, "name": "Torp", "type": "tram_stop", "ref": "F" }, "geometry": { "type": "Point", "coordinates": [ 12.023485674133468, 57.710466636475871 ] } },
{ "type": "Feature", "properties": { "id": 1871.000000, "osm_id": 1313438803.000000, "name": "Solrosgatan", "type": "tram_stop", "ref": null }, "geometry": { "type": "Point", "coordinates": [ 12.025136070868342, 57.71649959510404 ] } },
{ "type": "Feature", "properties": { "id": 1872.000000, "osm_id": 1313438793.000000, "name": "Torp", "type": "tram_stop", "ref": "C" }, "geometry": { "type": "Point", "coordinates": [ 12.023394646664997, 57.709819469731841 ] } },
{ "type": "Feature", "properties": { "id": 1873.000000, "osm_id": 1313438792.000000, "name": "Solrosgatan", "type": "tram_stop", "ref": null }, "geometry": { "type": "Point", "coordinates": [ 12.025019478595198, 57.71627328371833 ] } },
{ "type": "Feature", "properties": { "id": 1874.000000, "osm_id": 1313438805.000000, "name": "Kålltorp", "type": "tram_stop", "ref": "A" }, "geometry": { "type": "Point", "coordinates": [ 12.02307412268766, 57.710319450256151 ] } },
{ "type": "Feature", "properties": { "id": 1875.000000, "osm_id": 1313475036.000000, "name": "Torp", "type": "tram_stop", "ref": "E" }, "geometry": { "type": "Point", "coordinates": [ 12.023302278092048, 57.709155455362449 ] } },
{ "type": "Feature", "properties": { "id": 1876.000000, "osm_id": 1313438807.000000, "name": "Torp", "type": "tram_stop", "ref": "D" }, "geometry": { "type": "Point", "coordinates": [ 12.023361286690374, 57.709500622135124 ] } },
{ "type": "Feature", "properties": { "id": 1877.000000, "osm_id": 1313475304.000000, "name": "Töpelsgatan", "type": "tram_stop", "ref": "A" }, "geometry": { "type": "Point", "coordinates": [ 12.022481773590386, 57.702506259212939 ] } },
{ "type": "Feature", "properties": { "id": 1879.000000, "osm_id": 1313438808.000000, "name": "Kålltorp", "type": "tram_stop", "ref": "B" }, "geometry": { "type": "Point", "coordinates": [ 12.023371596431275, 57.71014971671687 ] } },
{ "type": "Feature", "properties": { "id": 1880.000000, "osm_id": 1313475240.000000, "name": "Ekmanska", "type": "tram_stop", "ref": "B" }, "geometry": { "type": "Point", "coordinates": [ 12.009150943326119, 57.699585417414077 ] } },
{ "type": "Feature", "properties": { "id": 1881.000000, "osm_id": 1313475273.000000, "name": "Bäckeliden", "type": "tram_stop", "ref": "B" }, "geometry": { "type": "Point", "coordinates": [ 12.003733384028948, 57.699882723519643 ] } },
{ "type": "Feature", "properties": { "id": 1882.000000, "osm_id": 1313475374.000000, "name": "Bögatan", "type": "tram_stop", "ref": "B" }, "geometry": { "type": "Point", "coordinates": [ 12.016017398405864, 57.700941274071432 ] } },
{ "type": "Feature", "properties": { "id": 1890.000000, "osm_id": 1331283436.000000, "name": "Runstavsgatan", "type": "tram_stop", "ref": null }, "geometry": { "type": "Point", "coordinates": [ 12.030331677369476, 57.748041954031457 ] } },
{ "type": "Feature", "properties": { "id": 1893.000000, "osm_id": 1331298113.000000, "name": "Nymånegatan", "type": "tram_stop", "ref": "A" }, "geometry": { "type": "Point", "coordinates": [ 12.029795319385386, 57.742496486891859 ] } },
{ "type": "Feature", "properties": { "id": 1894.000000, "osm_id": 1331298131.000000, "name": "Beväringsgatan", "type": "tram_stop", "ref": "B" }, "geometry": { "type": "Point", "coordinates": [ 12.028494448012877, 57.739739846576157 ] } },
{ "type": "Feature", "properties": { "id": 1896.000000, "osm_id": 1331283452.000000, "name": "Runstavsgatan", "type": "tram_stop", "ref": "B" }, "geometry": { "type": "Point", "coordinates": [ 12.030308124221563, 57.747903317352936 ] } },
{ "type": "Feature", "properties": { "id": 1897.000000, "osm_id": 1331298146.000000, "name": "Beväringsgatan", "type": "tram_stop", "ref": "A" }, "geometry": { "type": "Point", "coordinates": [ 12.028626043892702, 57.739961631734133 ] } },
{ "type": "Feature", "properties": { "id": 1898.000000, "osm_id": 1331298134.000000, "name": "Kviberg", "type": "tram_stop", "ref": null }, "geometry": { "type": "Point", "coordinates": [ 12.026406348294273, 57.736483980107423 ] } },
{ "type": "Feature", "properties": { "id": 1899.000000, "osm_id": 1332422613.000000, "name": "Marklandsgatan", "type": "tram_stop", "ref": "A" }, "geometry": { "type": "Point", "coordinates": [ 11.93624213203776, 57.674443144473834 ] } },
{ "type": "Feature", "properties": { "id": 1900.000000, "osm_id": 1331318533.000000, "name": "Olskrokstorget", "type": "tram_stop", "ref": "B" }, "geometry": { "type": "Point", "coordinates": [ 11.99937705749258, 57.714642416817895 ] } },
{ "type": "Feature", "properties": { "id": 1901.000000, "osm_id": 1331318540.000000, "name": "Svingeln", "type": "tram_stop", "ref": "B" }, "geometry": { "type": "Point", "coordinates": [ 11.989872482208, 57.711406918373875 ] } },
{ "type": "Feature", "properties": { "id": 1902.000000, "osm_id": 1313438800.000000, "name": "Sanatoriegatan", "type": "tram_stop", "ref": "B" }, "geometry": { "type": "Point", "coordinates": [ 12.024178773706891, 57.713666176555279 ] } },
{ "type": "Feature", "properties": { "id": 1903.000000, "osm_id": 1331318541.000000, "name": "Svingeln", "type": "tram_stop", "ref": "A" }, "geometry": { "type": "Point", "coordinates": [ 11.990011873257798, 57.711601546165539 ] } },
{ "type": "Feature", "properties": { "id": 1904.000000, "osm_id": 1331318536.000000, "name": "Olskrokstorget", "type": "tram_stop", "ref": "A" }, "geometry": { "type": "Point", "coordinates": [ 11.998787055328192, 57.714620875326695 ] } },
{ "type": "Feature", "properties": { "id": 1915.000000, "osm_id": 1332424585.000000, "name": "Marklandsgatan", "type": "tram_stop", "ref": "B" }, "geometry": { "type": "Point", "coordinates": [ 11.93557409435482, 57.674437277141593 ] } },
{ "type": "Feature", "properties": { "id": 1917.000000, "osm_id": 1332446077.000000, "name": "Marklandsgatan", "type": "tram_stop", "ref": "K" }, "geometry": { "type": "Point", "coordinates": [ 11.936340284123929, 57.674567867193034 ] } },
{ "type": "Feature", "properties": { "id": 1919.000000, "osm_id": 1332446079.000000, "name": "Marklandsgatan", "type": "tram_stop", "ref": "M" }, "geometry": { "type": "Point", "coordinates": [ 11.934154870509476, 57.674702229100909 ] } },
{ "type": "Feature", "properties": { "id": 1922.000000, "osm_id": 1332446080.000000, "name": "Marklandsgatan", "type": "tram_stop", "ref": "N" }, "geometry": { "type": "Point", "coordinates": [ 11.934130982085435, 57.675045719492957 ] } },
{ "type": "Feature", "properties": { "id": 1933.000000, "osm_id": 1331298136.000000, "name": "Kviberg", "type": "tram_stop", "ref": "B" }, "geometry": { "type": "Point", "coordinates": [ 12.026525622776433, 57.736705262351229 ] } },
{ "type": "Feature", "properties": { "id": 1976.000000, "osm_id": 1386002065.000000, "name": "Grönsakstorget", "type": "tram_stop", "ref": "D" }, "geometry": { "type": "Point", "coordinates": [ 11.963603849119323, 57.702527297789906 ] } },
{ "type": "Feature", "properties": { "id": 1981.000000, "osm_id": 1395259845.000000, "name": "Järntorget", "type": "tram_stop", "ref": "B" }, "geometry": { "type": "Point", "coordinates": [ 11.953092774901648, 57.70011859027494 ] } },
{ "type": "Feature", "properties": { "id": 1983.000000, "osm_id": 1395259825.000000, "name": "Järntorget", "type": "tram_stop", "ref": "C" }, "geometry": { "type": "Point", "coordinates": [ 11.953094535101314, 57.699944330507982 ] } },
{ "type": "Feature", "properties": { "id": 2023.000000, "osm_id": 1453741647.000000, "name": "Sankt Sigfrids Plan", "type": "tram_stop", "ref": "A" }, "geometry": { "type": "Point", "coordinates": [ 11.99921327510458, 57.698599957057993 ] } },
{ "type": "Feature", "properties": { "id": 2028.000000, "osm_id": 1453741637.000000, "name": "Korsvägen", "type": "tram_stop", "ref": "A" }, "geometry": { "type": "Point", "coordinates": [ 11.986971924614807, 57.696355199569084 ] } },
{ "type": "Feature", "properties": { "id": 2033.000000, "osm_id": 1455773451.000000, "name": "Berzeliigatan", "type": "tram_stop", "ref": "B" }, "geometry": { "type": "Point", "coordinates": [ 11.981539780806116, 57.698619738349471 ] } },
{ "type": "Feature", "properties": { "id": 2036.000000, "osm_id": 1455776291.000000, "name": "Ullevi Södra", "type": "tram_stop", "ref": "A" }, "geometry": { "type": "Point", "coordinates": [ 11.984946270074886, 57.704836679752283 ] } },
{ "type": "Feature", "properties": { "id": 2037.000000, "osm_id": 1455776366.000000, "name": "Ullevi Södra", "type": "tram_stop", "ref": "B" }, "geometry": { "type": "Point", "coordinates": [ 11.984978456583065, 57.703950377310726 ] } },
{ "type": "Feature", "properties": { "id": 2039.000000, "osm_id": 1455773445.000000, "name": "Valand", "type": "tram_stop", "ref": "C" }, "geometry": { "type": "Point", "coordinates": [ 11.974885052600541, 57.700465098152129 ] } },
{ "type": "Feature", "properties": { "id": 2102.000000, "osm_id": 1517531622.000000, "name": "Vårväderstorget", "type": "tram_stop", "ref": "A" }, "geometry": { "type": "Point", "coordinates": [ 11.893141044815023, 57.712919516620566 ] } },
{ "type": "Feature", "properties": { "id": 2105.000000, "osm_id": 1517531567.000000, "name": "Brunnsparken", "type": "tram_stop", "ref": "A" }, "geometry": { "type": "Point", "coordinates": [ 11.967785664431601, 57.707108762245539 ] } },
{ "type": "Feature", "properties": { "id": 2107.000000, "osm_id": 1517531632.000000, "name": "Sälöfjordsgatan", "type": "tram_stop", "ref": null }, "geometry": { "type": "Point", "coordinates": [ 11.902902441612838, 57.713635582608667 ] } },
{ "type": "Feature", "properties": { "id": 2108.000000, "osm_id": 1517531575.000000, "name": "Lilla Bommen", "type": "tram_stop", "ref": "A" }, "geometry": { "type": "Point", "coordinates": [ 11.966728119708224, 57.709119580816868 ] } },
{ "type": "Feature", "properties": { "id": 2110.000000, "osm_id": 1517531668.000000, "name": "Eketrägatan", "type": "tram_stop", "ref": "A" }, "geometry": { "type": "Point", "coordinates": [ 11.909911724322653, 57.716490291191519 ] } },
{ "type": "Feature", "properties": { "id": 2111.000000, "osm_id": 1517531658.000000, "name": "Mildvädersgatan", "type": "tram_stop", "ref": null }, "geometry": { "type": "Point", "coordinates": [ 11.89092595926337, 57.715682275725591 ] } },
{ "type": "Feature", "properties": { "id": 2112.000000, "osm_id": 1517531812.000000, "name": "Väderilsgatan", "type": "tram_stop", "ref": null }, "geometry": { "type": "Point", "coordinates": [ 11.893348496918575, 57.726548742637803 ] } },
{ "type": "Feature", "properties": { "id": 2115.000000, "osm_id": 1517593150.000000, "name": "Nordstan", "type": "tram_stop", "ref": "A" }, "geometry": { "type": "Point", "coordinates": [ 11.970968692161762, 57.709003575276952 ] } },
{ "type": "Feature", "properties": { "id": 2116.000000, "osm_id": 1517531693.000000, "name": "Gropegårdsgatan", "type": "tram_stop", "ref": null }, "geometry": { "type": "Point", "coordinates": [ 11.919159478094002, 57.718303632124076 ] } },
{ "type": "Feature", "properties": { "id": 2118.000000, "osm_id": 1517531764.000000, "name": "Wieselgrensplatsen", "type": "tram_stop", "ref": "A" }, "geometry": { "type": "Point", "coordinates": [ 11.935599826797558, 57.720583425968243 ] } },
{ "type": "Feature", "properties": { "id": 2119.000000, "osm_id": 1517531715.000000, "name": "Frihamnen", "type": "tram_stop", "ref": "A" }, "geometry": { "type": "Point", "coordinates": [ 11.960063081761717, 57.720285952224614 ] } },
{ "type": "Feature", "properties": { "id": 2120.000000, "osm_id": 1517531727.000000, "name": "Önskevädersgatan", "type": "tram_stop", "ref": null }, "geometry": { "type": "Point", "coordinates": [ 11.893102739517532, 57.720280336349454 ] } },
{ "type": "Feature", "properties": { "id": 2121.000000, "osm_id": 1517531806.000000, "name": "Friskväderstorget", "type": "tram_stop", "ref": null }, "geometry": { "type": "Point", "coordinates": [ 11.893195527185668, 57.72356729967899 ] } },
{ "type": "Feature", "properties": { "id": 2122.000000, "osm_id": 1517531702.000000, "name": "Rambergsvallen", "type": "tram_stop", "ref": "A" }, "geometry": { "type": "Point", "coordinates": [ 11.9276947700956, 57.719474751635481 ] } },
{ "type": "Feature", "properties": { "id": 2123.000000, "osm_id": 1517531747.000000, "name": "Vågmästareplatsen", "type": "tram_stop", "ref": "A" }, "geometry": { "type": "Point", "coordinates": [ 11.945174558611711, 57.720523662998609 ] } },
{ "type": "Feature", "properties": { "id": 2124.000000, "osm_id": 1517531768.000000, "name": "Hjalmar Brantingsplatsen", "type": "tram_stop", "ref": "A" }, "geometry": { "type": "Point", "coordinates": [ 11.952273695323557, 57.720594238623335 ] } },
{ "type": "Feature", "properties": { "id": 2133.000000, "osm_id": 1525835703.000000, "name": "Olivedalsgatan", "type": "tram_stop", "ref": "B" }, "geometry": { "type": "Point", "coordinates": [ 11.952523140761997, 57.69213072036959 ] } },
{ "type": "Feature", "properties": { "id": 2137.000000, "osm_id": 1525835669.000000, "name": "Linnéplatsen", "type": "tram_stop", "ref": "B" }, "geometry": { "type": "Point", "coordinates": [ 11.952038834396632, 57.689973218492753 ] } },
{ "type": "Feature", "properties": { "id": 2169.000000, "osm_id": 1570029364.000000, "name": "Vasaplatsen", "type": "tram_stop", "ref": "D" }, "geometry": { "type": "Point", "coordinates": [ 11.969454585172485, 57.69910379325772 ] } },
{ "type": "Feature", "properties": { "id": 2171.000000, "osm_id": 1570029363.000000, "name": "Vasaplatsen", "type": "tram_stop", "ref": "A" }, "geometry": { "type": "Point", "coordinates": [ 11.970469549827781, 57.698904974514463 ] } },
{ "type": "Feature", "properties": { "id": 2173.000000, "osm_id": 1570029365.000000, "name": "Vasaplatsen", "type": "tram_stop", "ref": "C" }, "geometry": { "type": "Point", "coordinates": [ 11.969248977087631, 57.699577370787033 ] } },
{ "type": "Feature", "properties": { "id": 2174.000000, "osm_id": 1570146729.000000, "name": "Grönsakstorget", "type": "tram_stop", "ref": "C" }, "geometry": { "type": "Point", "coordinates": [ 11.9639738263254, 57.702586557845372 ] } },
{ "type": "Feature", "properties": { "id": 2175.000000, "osm_id": 1570146689.000000, "name": "Domkyrkan", "type": "tram_stop", "ref": "B" }, "geometry": { "type": "Point", "coordinates": [ 11.963665288469571, 57.704235529656678 ] } },
{ "type": "Feature", "properties": { "id": 2176.000000, "osm_id": 1570146695.000000, "name": "Domkyrkan", "type": "tram_stop", "ref": "A" }, "geometry": { "type": "Point", "coordinates": [ 11.963691188550371, 57.704312726984902 ] } },
{ "type": "Feature", "properties": { "id": 2177.000000, "osm_id": 1570146707.000000, "name": "Grönsakstorget", "type": "tram_stop", "ref": "B" }, "geometry": { "type": "Point", "coordinates": [ 11.964940343580336, 57.702439623082697 ] } },
{ "type": "Feature", "properties": { "id": 2178.000000, "osm_id": 1570146743.000000, "name": "Kapellplatsen", "type": "tram_stop", "ref": "B" }, "geometry": { "type": "Point", "coordinates": [ 11.973489465722169, 57.692889953159046 ] } },
{ "type": "Feature", "properties": { "id": 2180.000000, "osm_id": 1570146748.000000, "name": "Kapellplatsen", "type": "tram_stop", "ref": "A" }, "geometry": { "type": "Point", "coordinates": [ 11.973349990853338, 57.693278789647309 ] } },
{ "type": "Feature", "properties": { "id": 2182.000000, "osm_id": 1570367029.000000, "name": "Kungsportsplatsen", "type": "tram_stop", "ref": "B" }, "geometry": { "type": "Point", "coordinates": [ 11.969797153555191, 57.703966722021896 ] } },
{ "type": "Feature", "properties": { "id": 2183.000000, "osm_id": 1570367033.000000, "name": "Kungsportsplatsen", "type": "tram_stop", "ref": "A" }, "geometry": { "type": "Point", "coordinates": [ 11.969618199922422, 57.704131677876347 ] } },
{ "type": "Feature", "properties": { "id": 2211.000000, "osm_id": 1585219793.000000, "name": "Lana", "type": "tram_stop", "ref": "D" }, "geometry": { "type": "Point", "coordinates": [ 12.00387235598356, 57.678050128866467 ] } },
{ "type": "Feature", "properties": { "id": 2219.000000, "osm_id": 1585220249.000000, "name": "Lackarebäck", "type": "tram_stop", "ref": "A" }, "geometry": { "type": "Point", "coordinates": [ 12.011442052739568, 57.666347818569797 ] } },
{ "type": "Feature", "properties": { "id": 2221.000000, "osm_id": 1585220017.000000, "name": "Mölndals Sjukhus", "type": "tram_stop", "ref": "B" }, "geometry": { "type": "Point", "coordinates": [ 12.013663173261534, 57.661454798773256 ] } },
{ "type": "Feature", "properties": { "id": 2222.000000, "osm_id": 1585220305.000000, "name": "Krokslätts Fabriker", "type": "tram_stop", "ref": "B" }, "geometry": { "type": "Point", "coordinates": [ 12.01005694324016, 57.671705950173497 ] } },
{ "type": "Feature", "properties": { "id": 2224.000000, "osm_id": 1585220500.000000, "name": "Lana", "type": "tram_stop", "ref": "A" }, "geometry": { "type": "Point", "coordinates": [ 12.004166560784967, 57.678332934279588 ] } },
{ "type": "Feature", "properties": { "id": 2282.000000, "osm_id": 1678131041.000000, "name": "Prinsgatan", "type": "tram_stop", "ref": "B" }, "geometry": { "type": "Point", "coordinates": [ 11.95133123413072, 57.696423428260928 ] } },
{ "type": "Feature", "properties": { "id": 2294.000000, "osm_id": 1691294724.000000, "name": "Masthuggstorget", "type": "tram_stop", "ref": "B" }, "geometry": { "type": "Point", "coordinates": [ 11.944735095428314, 57.699534287804703 ] } },
{ "type": "Feature", "properties": { "id": 2319.000000, "osm_id": 1751676420.000000, "name": "Mildvädersgatan", "type": "tram_stop", "ref": null }, "geometry": { "type": "Point", "coordinates": [ 11.890996031973913, 57.715550093112526 ] } },
{ "type": "Feature", "properties": { "id": 2327.000000, "osm_id": 1752632594.000000, "name": "Chalmers", "type": "tram_stop", "ref": "A" }, "geometry": { "type": "Point", "coordinates": [ 11.973177658924099, 57.68998369587171 ] } },
{ "type": "Feature", "properties": { "id": 2328.000000, "osm_id": 1752632595.000000, "name": "Chalmers", "type": "tram_stop", "ref": "B" }, "geometry": { "type": "Point", "coordinates": [ 11.9726813664372, 57.68987137836919 ] } },
{ "type": "Feature", "properties": { "id": 2330.000000, "osm_id": 1752632616.000000, "name": "Wavrinskys Plats", "type": "tram_stop", "ref": "D" }, "geometry": { "type": "Point", "coordinates": [ 11.968207944713498, 57.688961858055855 ] } },
{ "type": "Feature", "properties": { "id": 2331.000000, "osm_id": 1753135240.000000, "name": "Sahlgrenska Huvudentré", "type": "tram_stop", "ref": "B" }, "geometry": { "type": "Point", "coordinates": [ 11.96135062590821, 57.683660052841503 ] } },
{ "type": "Feature", "properties": { "id": 2332.000000, "osm_id": 1752632677.000000, "name": "Wavrinskys Plats", "type": "tram_stop", "ref": "B" }, "geometry": { "type": "Point", "coordinates": [ 11.968458395980321, 57.688782317689849 ] } },
{ "type": "Feature", "properties": { "id": 2334.000000, "osm_id": 1753413386.000000, "name": "Nymilsgatan", "type": "tram_stop", "ref": "A" }, "geometry": { "type": "Point", "coordinates": [ 11.925078861934166, 57.662470433980779 ] } },
{ "type": "Feature", "properties": { "id": 2337.000000, "osm_id": 1753135230.000000, "name": "Medicinaregatan", "type": "tram_stop", "ref": "B" }, "geometry": { "type": "Point", "coordinates": [ 11.964180943152797, 57.685252195349307 ] } },
{ "type": "Feature", "properties": { "id": 2338.000000, "osm_id": 1753222905.000000, "name": "Elisedal", "type": "tram_stop", "ref": null }, "geometry": { "type": "Point", "coordinates": [ 12.00044155919562, 57.683439357330911 ] } },
{ "type": "Feature", "properties": { "id": 2339.000000, "osm_id": 1753135234.000000, "name": "Olivedalsgatan", "type": "tram_stop", "ref": "C" }, "geometry": { "type": "Point", "coordinates": [ 11.953598874215288, 57.691892674319497 ] } },
{ "type": "Feature", "properties": { "id": 2341.000000, "osm_id": 1753222909.000000, "name": "Varbergsgatan", "type": "tram_stop", "ref": null }, "geometry": { "type": "Point", "coordinates": [ 12.003114967212809, 57.679529618595666 ] } },
{ "type": "Feature", "properties": { "id": 2342.000000, "osm_id": 1753222912.000000, "name": "Lana", "type": "tram_stop", "ref": "B" }, "geometry": { "type": "Point", "coordinates": [ 12.00444098429486, 57.678025821347283 ] } },
{ "type": "Feature", "properties": { "id": 2343.000000, "osm_id": 1753355814.000000, "name": "Axel Dahlströms torg", "type": "tram_stop", "ref": "B" }, "geometry": { "type": "Point", "coordinates": [ 11.927856457007806, 57.672377089160577 ] } },
{ "type": "Feature", "properties": { "id": 2344.000000, "osm_id": 1753355818.000000, "name": "Smaragdgatan", "type": "tram_stop", "ref": "A" }, "geometry": { "type": "Point", "coordinates": [ 11.899304928770789, 57.645333968218651 ] } },
{ "type": "Feature", "properties": { "id": 2345.000000, "osm_id": 1753355817.000000, "name": "Frölunda Torg", "type": "tram_stop", "ref": "A" }, "geometry": { "type": "Point", "coordinates": [ 11.911637558186101, 57.652764273924902 ] } },
{ "type": "Feature", "properties": { "id": 2346.000000, "osm_id": 1753413384.000000, "name": "Lantmilsgatan", "type": "tram_stop", "ref": "A" }, "geometry": { "type": "Point", "coordinates": [ 11.9248359543802, 57.666860036672738 ] } },
{ "type": "Feature", "properties": { "id": 2347.000000, "osm_id": 1753355815.000000, "name": "Briljantgatan", "type": "tram_stop", "ref": "A" }, "geometry": { "type": "Point", "coordinates": [ 11.90358707546406, 57.648998620105147 ] } },
{ "type": "Feature", "properties": { "id": 2349.000000, "osm_id": 1753355816.000000, "name": "Briljantgatan", "type": "tram_stop", "ref": "B" }, "geometry": { "type": "Point", "coordinates": [ 11.903528150684764, 57.649057796341573 ] } },
{ "type": "Feature", "properties": { "id": 2350.000000, "osm_id": 1757383273.000000, "name": "Nya Varvsallén", "type": "tram_stop", "ref": "A" }, "geometry": { "type": "Point", "coordinates": [ 11.895095453178016, 57.677973434452475 ] } },
{ "type": "Feature", "properties": { "id": 2352.000000, "osm_id": 1753413387.000000, "name": "Positivgatan", "type": "tram_stop", "ref": "A" }, "geometry": { "type": "Point", "coordinates": [ 11.917519055823931, 57.656637383743323 ] } },
{ "type": "Feature", "properties": { "id": 2358.000000, "osm_id": 1753919688.000000, "name": "Temperaturgatan", "type": "tram_stop", "ref": "A" }, "geometry": { "type": "Point", "coordinates": [ 11.895289661874529, 57.732734084265658 ] } },
{ "type": "Feature", "properties": { "id": 2359.000000, "osm_id": 1757383268.000000, "name": "Hagen", "type": "tram_stop", "ref": "A" }, "geometry": { "type": "Point", "coordinates": [ 11.883659519764194, 57.674698792520616 ] } },
{ "type": "Feature", "properties": { "id": 2361.000000, "osm_id": 1757383269.000000, "name": "Hinsholmen", "type": "tram_stop", "ref": "A" }, "geometry": { "type": "Point", "coordinates": [ 11.860908352342252, 57.667734185354732 ] } },
{ "type": "Feature", "properties": { "id": 2362.000000, "osm_id": 1757383272.000000, "name": "Långedrag", "type": "tram_stop", "ref": "A" }, "geometry": { "type": "Point", "coordinates": [ 11.853627160693492, 57.668411359312103 ] } },
{ "type": "Feature", "properties": { "id": 2363.000000, "osm_id": 1757383271.000000, "name": "Käringberget", "type": "tram_stop", "ref": "A" }, "geometry": { "type": "Point", "coordinates": [ 11.870615434407512, 57.669106470542303 ] } },
{ "type": "Feature", "properties": { "id": 2364.000000, "osm_id": 1757383270.000000, "name": "Kungssten", "type": "tram_stop", "ref": "A" }, "geometry": { "type": "Point", "coordinates": [ 11.901824947959881, 57.680514156942408 ] } },
{ "type": "Feature", "properties": { "id": 2365.000000, "osm_id": 1759293581.000000, "name": "Masthuggstorget", "type": "tram_stop", "ref": "A" }, "geometry": { "type": "Point", "coordinates": [ 11.944485398532779, 57.699476117396706 ] } },
{ "type": "Feature", "properties": { "id": 2366.000000, "osm_id": 1759293582.000000, "name": "Stigbergstorget", "type": "tram_stop", "ref": "A" }, "geometry": { "type": "Point", "coordinates": [ 11.935558252557826, 57.699315687769975 ] } },
{ "type": "Feature", "properties": { "id": 2368.000000, "osm_id": 1757383274.000000, "name": "Roddföreningen", "type": "tram_stop", "ref": "B" }, "geometry": { "type": "Point", "coordinates": [ 11.851645092050035, 57.664001053319325 ] } },
{ "type": "Feature", "properties": { "id": 2369.000000, "osm_id": 1759293579.000000, "name": "Chapmans Torg", "type": "tram_stop", "ref": "A" }, "geometry": { "type": "Point", "coordinates": [ 11.919865150522185, 57.6944763959727 ] } },
{ "type": "Feature", "properties": { "id": 2370.000000, "osm_id": 1757383275.000000, "name": "Sandarna", "type": "tram_stop", "ref": "A" }, "geometry": { "type": "Point", "coordinates": [ 11.909476787366998, 57.682759668802603 ] } },
{ "type": "Feature", "properties": { "id": 2371.000000, "osm_id": 1757383276.000000, "name": "Sannaplan", "type": "tram_stop", "ref": "A" }, "geometry": { "type": "Point", "coordinates": [ 11.91672738506918, 57.684282660609234 ] } },
{ "type": "Feature", "properties": { "id": 2372.000000, "osm_id": 1759293580.000000, "name": "Jaegerdorffsplatsen", "type": "tram_stop", "ref": "A" }, "geometry": { "type": "Point", "coordinates": [ 11.915504633034232, 57.691651359327125 ] } },
{ "type": "Feature", "properties": { "id": 2379.000000, "osm_id": 1767990484.000000, "name": "Botaniska Trädgården", "type": "tram_stop", "ref": "B" }, "geometry": { "type": "Point", "coordinates": [ 11.945904873835218, 57.68146667641907 ] } },
{ "type": "Feature", "properties": { "id": 2380.000000, "osm_id": 1767990477.000000, "name": "Botaniska Trädgården", "type": "tram_stop", "ref": "A" }, "geometry": { "type": "Point", "coordinates": [ 11.945582086743997, 57.681261822705501 ] } },
{ "type": "Feature", "properties": { "id": 2381.000000, "osm_id": 1768040496.000000, "name": "Hagakyrkan", "type": "tram_stop", "ref": "B" }, "geometry": { "type": "Point", "coordinates": [ 11.961596383309255, 57.699601259211086 ] } },
{ "type": "Feature", "properties": { "id": 2383.000000, "osm_id": 1767990496.000000, "name": "Musikvägen", "type": "tram_stop", "ref": "A" }, "geometry": { "type": "Point", "coordinates": [ 11.920468144636487, 57.658927571147402 ] } },
{ "type": "Feature", "properties": { "id": 2384.000000, "osm_id": 1768040499.000000, "name": "Ullevi Norra", "type": "tram_stop", "ref": "A" }, "geometry": { "type": "Point", "coordinates": [ 11.986013621624977, 57.70798056399461 ] } },
{ "type": "Feature", "properties": { "id": 2387.000000, "osm_id": 1767990505.000000, "name": "Musikvägen", "type": "tram_stop", "ref": "B" }, "geometry": { "type": "Point", "coordinates": [ 11.920611642818812, 57.659076852842922 ] } },
{ "type": "Feature", "properties": { "id": 2411.000000, "osm_id": 1768939092.000000, "name": "Korsvägen", "type": "tram_stop", "ref": "F" }, "geometry": { "type": "Point", "coordinates": [ 11.987267135244593, 57.696468941995136 ] } },
{ "type": "Feature", "properties": { "id": 2508.000000, "osm_id": 1775831995.000000, "name": "Scandinavium", "type": "tram_stop", "ref": "B" }, "geometry": { "type": "Point", "coordinates": [ 11.985819496747494, 57.700392091775484 ] } },
{ "type": "Feature", "properties": { "id": 2641.000000, "osm_id": 1795743508.000000, "name": "Opaltorget", "type": "tram_stop", "ref": "A" }, "geometry": { "type": "Point", "coordinates": [ 11.901055321610501, 57.6423341688919 ] } },
{ "type": "Feature", "properties": { "id": 2642.000000, "osm_id": 1795684474.000000, "name": "Komettorget", "type": "tram_stop", "ref": "C" }, "geometry": { "type": "Point", "coordinates": [ 12.071029170038145, 57.751357332012702 ] } },
{ "type": "Feature", "properties": { "id": 2643.000000, "osm_id": 1799571639.000000, "name": "Aprilgatan", "type": "tram_stop", "ref": "C" }, "geometry": { "type": "Point", "coordinates": [ 12.041515147859712, 57.760974224799803 ] } },
{ "type": "Feature", "properties": { "id": 2645.000000, "osm_id": 1795743509.000000, "name": "Opaltorget", "type": "tram_stop", "ref": "B" }, "geometry": { "type": "Point", "coordinates": [ 11.900534218690213, 57.642522091161055 ] } },
{ "type": "Feature", "properties": { "id": 2652.000000, "osm_id": 1795684472.000000, "name": "Komettorget", "type": "tram_stop", "ref": "D" }, "geometry": { "type": "Point", "coordinates": [ 12.070945937739625, 57.751328498265778 ] } },
{ "type": "Feature", "properties": { "id": 2679.000000, "osm_id": 1836994502.000000, "name": "Bokekullsgatan", "type": "tram_stop", "ref": "A" }, "geometry": { "type": "Point", "coordinates": [ 11.932635985835418, 57.677332218859675 ] } },
{ "type": "Feature", "properties": { "id": 2682.000000, "osm_id": 1845284463.000000, "name": "Godhemsgatan", "type": "tram_stop", "ref": "A" }, "geometry": { "type": "Point", "coordinates": [ 11.925699374226099, 57.684786832085095 ] } },
{ "type": "Feature", "properties": { "id": 2684.000000, "osm_id": 1845284490.000000, "name": "Klintens Väg", "type": "tram_stop", "ref": "A" }, "geometry": { "type": "Point", "coordinates": [ 11.928126773385145, 57.682340070729722 ] } },
{ "type": "Feature", "properties": { "id": 2685.000000, "osm_id": 1845284501.000000, "name": "Högsbogatan", "type": "tram_stop", "ref": "A" }, "geometry": { "type": "Point", "coordinates": [ 11.930131640805229, 57.680359594647868 ] } },
{ "type": "Feature", "properties": { "id": 2718.000000, "osm_id": 1913214087.000000, "name": "Elisedal", "type": "tram_stop", "ref": null }, "geometry": { "type": "Point", "coordinates": [ 11.99993487314879, 57.684305878481005 ] } },
{ "type": "Feature", "properties": { "id": 2720.000000, "osm_id": 1913214088.000000, "name": "Almedal", "type": "tram_stop", "ref": "B" }, "geometry": { "type": "Point", "coordinates": [ 11.997496661334651, 57.686784323430409 ] } },
{ "type": "Feature", "properties": { "id": 2723.000000, "osm_id": 1913214116.000000, "name": "Varbergsgatan", "type": "tram_stop", "ref": null }, "geometry": { "type": "Point", "coordinates": [ 12.002524294496169, 57.680511726190474 ] } },
{ "type": "Feature", "properties": { "id": 2726.000000, "osm_id": 1912648524.000000, "name": "Dr Fries Torg", "type": "tram_stop", "ref": null }, "geometry": { "type": "Point", "coordinates": [ 11.972659070574762, 57.684475025287071 ] } },
{ "type": "Feature", "properties": { "id": 2727.000000, "osm_id": 1913261811.000000, "name": "Mölndal centrum", "type": "tram_stop", "ref": "B" }, "geometry": { "type": "Point", "coordinates": [ 12.017224224824785, 57.656088033809297 ] } },
{ "type": "Feature", "properties": { "id": 2728.000000, "osm_id": 1912648526.000000, "name": "Dr Fries Torg", "type": "tram_stop", "ref": null }, "geometry": { "type": "Point", "coordinates": [ 11.973160895117759, 57.684325324496371 ] } },
{ "type": "Feature", "properties": { "id": 2729.000000, "osm_id": 1913261814.000000, "name": "Lackarebäck", "type": "tram_stop", "ref": "B" }, "geometry": { "type": "Point", "coordinates": [ 12.011886293607773, 57.665182398752584 ] } },
{ "type": "Feature", "properties": { "id": 2732.000000, "osm_id": 1913261819.000000, "name": "Krokslätts torg", "type": "tram_stop", "ref": "B" }, "geometry": { "type": "Point", "coordinates": [ 12.007865159379321, 57.675392395008224 ] } },
{ "type": "Feature", "properties": { "id": 2734.000000, "osm_id": 1913261843.000000, "name": "Krokslätts Fabriker", "type": "tram_stop", "ref": "A" }, "geometry": { "type": "Point", "coordinates": [ 12.009967843609417, 57.67208707531077 ] } },
{ "type": "Feature", "properties": { "id": 2736.000000, "osm_id": 1913261838.000000, "name": "Mölndals Sjukhus", "type": "tram_stop", "ref": "A" }, "geometry": { "type": "Point", "coordinates": [ 12.013691168818129, 57.66153694142433 ] } },
{ "type": "Feature", "properties": { "id": 2743.000000, "osm_id": 1913304138.000000, "name": "Mölndal centrum", "type": "tram_stop", "ref": "A" }, "geometry": { "type": "Point", "coordinates": [ 12.016911747474495, 57.656552475064167 ] } },
{ "type": "Feature", "properties": { "id": 2746.000000, "osm_id": 1916846213.000000, "name": "Brunnsparken", "type": "tram_stop", "ref": "H" }, "geometry": { "type": "Point", "coordinates": [ 11.966566432795986, 57.706216424833684 ] } },
{ "type": "Feature", "properties": { "id": 2747.000000, "osm_id": 1916846221.000000, "name": "Brunnsparken", "type": "tram_stop", "ref": "G" }, "geometry": { "type": "Point", "coordinates": [ 11.96694906667585, 57.706242324914498 ] } },
{ "type": "Feature", "properties": { "id": 2779.000000, "osm_id": 2087582634.000000, "name": "Linnéplatsen", "type": "tram_stop", "ref": "C" }, "geometry": { "type": "Point", "coordinates": [ 11.952350892651765, 57.690166924275111 ] } },
{ "type": "Feature", "properties": { "id": 2780.000000, "osm_id": 2087541783.000000, "name": "Östra Sjukhuset", "type": "tram_stop", "ref": "B" }, "geometry": { "type": "Point", "coordinates": [ 12.04832837785429, 57.722350917890452 ] } },
{ "type": "Feature", "properties": { "id": 2781.000000, "osm_id": 2087898166.000000, "name": "Fjällgatan", "type": "tram_stop", "ref": "B" }, "geometry": { "type": "Point", "coordinates": [ 11.936301895007377, 57.694145646073501 ] } },
{ "type": "Feature", "properties": { "id": 2782.000000, "osm_id": 2087922974.000000, "name": "Seminariegatan", "type": "tram_stop", "ref": "B" }, "geometry": { "type": "Point", "coordinates": [ 11.957180461441311, 57.692057294897815 ] } },
{ "type": "Feature", "properties": { "id": 2783.000000, "osm_id": 2087898167.000000, "name": "Fjällgatan", "type": "tram_stop", "ref": "A" }, "geometry": { "type": "Point", "coordinates": [ 11.936233582496527, 57.694429960229158 ] } },
{ "type": "Feature", "properties": { "id": 2784.000000, "osm_id": 2087560478.000000, "name": "Östra Sjukhuset", "type": "tram_stop", "ref": "C" }, "geometry": { "type": "Point", "coordinates": [ 12.047935266595458, 57.722328370570892 ] } },
{ "type": "Feature", "properties": { "id": 2785.000000, "osm_id": 2087898168.000000, "name": "Godhemsgatan", "type": "tram_stop", "ref": null }, "geometry": { "type": "Point", "coordinates": [ 11.926478472126094, 57.685427041849493 ] } },
{ "type": "Feature", "properties": { "id": 2786.000000, "osm_id": 2087560489.000000, "name": "Östra Sjukhuset", "type": "tram_stop", "ref": "D" }, "geometry": { "type": "Point", "coordinates": [ 12.047943648498631, 57.722370950639018 ] } },
{ "type": "Feature", "properties": { "id": 2787.000000, "osm_id": 2087898169.000000, "name": "Majvallen", "type": "tram_stop", "ref": "A" }, "geometry": { "type": "Point", "coordinates": [ 11.935513996109082, 57.690912159286228 ] } },
{ "type": "Feature", "properties": { "id": 2788.000000, "osm_id": 2087898351.000000, "name": "Stigbergstorget", "type": "tram_stop", "ref": "C" }, "geometry": { "type": "Point", "coordinates": [ 11.934830619543336, 57.698173234367403 ] } },
{ "type": "Feature", "properties": { "id": 2789.000000, "osm_id": 2087922967.000000, "name": "Brunnsgatan", "type": "tram_stop", "ref": "B" }, "geometry": { "type": "Point", "coordinates": [ 11.959186921422997, 57.693674331658059 ] } },
{ "type": "Feature", "properties": { "id": 2790.000000, "osm_id": 2087922968.000000, "name": "Brunnsgatan", "type": "tram_stop", "ref": "A" }, "geometry": { "type": "Point", "coordinates": [ 11.959542733212713, 57.693780278914176 ] } },
{ "type": "Feature", "properties": { "id": 2791.000000, "osm_id": 2087922969.000000, "name": "Handelshögskolan", "type": "tram_stop", "ref": "A" }, "geometry": { "type": "Point", "coordinates": [ 11.962454857832283, 57.696178928145343 ] } },
{ "type": "Feature", "properties": { "id": 2792.000000, "osm_id": 2087922970.000000, "name": "Handelshögskolan", "type": "tram_stop", "ref": "B" }, "geometry": { "type": "Point", "coordinates": [ 11.96254798077655, 57.696444299199825 ] } },
{ "type": "Feature", "properties": { "id": 2793.000000, "osm_id": 2087922975.000000, "name": "Seminariegatan", "type": "tram_stop", "ref": "A" }, "geometry": { "type": "Point", "coordinates": [ 11.95755882055056, 57.692342950157951 ] } },
{ "type": "Feature", "properties": { "id": 2795.000000, "osm_id": 2087931321.000000, "name": "Mariaplan", "type": "tram_stop", "ref": "B" }, "geometry": { "type": "Point", "coordinates": [ 11.920295896526282, 57.686496991789603 ] } },
{ "type": "Feature", "properties": { "id": 2796.000000, "osm_id": 2087922971.000000, "name": "Kaptensgatan", "type": "tram_stop", "ref": "A" }, "geometry": { "type": "Point", "coordinates": [ 11.927038969991285, 57.69694897358989 ] } },
{ "type": "Feature", "properties": { "id": 2797.000000, "osm_id": 2087931322.000000, "name": "Vagnhallen Majorna", "type": "tram_stop", "ref": "A" }, "geometry": { "type": "Point", "coordinates": [ 11.912338536748507, 57.68916889106422 ] } },
{ "type": "Feature", "properties": { "id": 2798.000000, "osm_id": 2087922972.000000, "name": "Kaptensgatan", "type": "tram_stop", "ref": "B" }, "geometry": { "type": "Point", "coordinates": [ 11.927610029054506, 57.697158269712141 ] } },
{ "type": "Feature", "properties": { "id": 2799.000000, "osm_id": 2087956215.000000, "name": "Angered Centrum", "type": "tram_stop", "ref": "B" }, "geometry": { "type": "Point", "coordinates": [ 12.049220296170974, 57.795605566503752 ] } },
{ "type": "Feature", "properties": { "id": 2800.000000, "osm_id": 2087922973.000000, "name": "Ostindiegatan", "type": "tram_stop", "ref": "A" }, "geometry": { "type": "Point", "coordinates": [ 11.915628349925072, 57.687615389130059 ] } },
{ "type": "Feature", "properties": { "id": 2801.000000, "osm_id": 2087956223.000000, "name": "Angered Centrum", "type": "tram_stop", "ref": "C" }, "geometry": { "type": "Point", "coordinates": [ 12.049104039173953, 57.795625683071364 ] } },
{ "type": "Feature", "properties": { "id": 2802.000000, "osm_id": 2087956232.000000, "name": "Angered Centrum", "type": "tram_stop", "ref": "D" }, "geometry": { "type": "Point", "coordinates": [ 12.04962556118943, 57.79604704134389 ] } },
{ "type": "Feature", "properties": { "id": 2803.000000, "osm_id": 2087956245.000000, "name": "Angered Centrum", "type": "tram_stop", "ref": "E" }, "geometry": { "type": "Point", "coordinates": [ 12.04952766056036, 57.796068666654101 ] } },
{ "type": "Feature", "properties": { "id": 2804.000000, "osm_id": 2087956254.000000, "name": "Angered Centrum", "type": "tram_stop", "ref": "F" }, "geometry": { "type": "Point", "coordinates": [ 12.049403189298232, 57.796087945031381 ] } },
{ "type": "Feature", "properties": { "id": 2831.000000, "osm_id": 2132420249.000000, "name": "Klintens Väg", "type": "tram_stop", "ref": "B" }, "geometry": { "type": "Point", "coordinates": [ 11.9279842810312, 57.68244601798586 ] } },
{ "type": "Feature", "properties": { "id": 2832.000000, "osm_id": 2136122140.000000, "name": "Wieselgrensplatsen", "type": "tram_stop", "ref": "C" }, "geometry": { "type": "Point", "coordinates": [ 11.935946250855721, 57.72055945372518 ] } },
{ "type": "Feature", "properties": { "id": 2848.000000, "osm_id": 2176980153.000000, "name": "Varmfrontsgatan", "type": "tram_stop", "ref": "B" }, "geometry": { "type": "Point", "coordinates": [ 11.896644345065425, 57.736878264832718 ] } },
{ "type": "Feature", "properties": { "id": 2849.000000, "osm_id": 2177124792.000000, "name": "Hinsholmen", "type": "tram_stop", "ref": "B" }, "geometry": { "type": "Point", "coordinates": [ 11.861992383879683, 57.667349372180034 ] } },
{ "type": "Feature", "properties": { "id": 2852.000000, "osm_id": 2177124793.000000, "name": "Tranered", "type": "tram_stop", "ref": "A" }, "geometry": { "type": "Point", "coordinates": [ 11.879431855441538, 57.672404330345913 ] } },
{ "type": "Feature", "properties": { "id": 3412.000000, "osm_id": 2440635209.000000, "name": "Göteborg Landvetter Flygplats", "type": "aerodrome", "ref": null }, "geometry": { "type": "Point", "coordinates": [ 12.287494334065116, 57.665050132320481 ] } },
{ "type": "Feature", "properties": { "id": 3498.000000, "osm_id": 2582722054.000000, "name": "Brunnsparken", "type": "tram_stop", "ref": "B" }, "geometry": { "type": "Point", "coordinates": [ 11.967744174010903, 57.707285620402509 ] } },
{ "type": "Feature", "properties": { "id": 3570.000000, "osm_id": 2869182764.000000, "name": "Gamlestadstorget", "type": "tram_stop", "ref": "A" }, "geometry": { "type": "Point", "coordinates": [ 12.007873373644427, 57.72806963896862 ] } },
{ "type": "Feature", "properties": { "id": 3589.000000, "osm_id": 2961639532.000000, "name": "Nymånegatan", "type": "tram_stop", "ref": "D" }, "geometry": { "type": "Point", "coordinates": [ 12.03017988110301, 57.742555495490187 ] } },
{ "type": "Feature", "properties": { "id": 3590.000000, "osm_id": 2961639531.000000, "name": "Nymånegatan", "type": "tram_stop", "ref": "C" }, "geometry": { "type": "Point", "coordinates": [ 12.02970554920242, 57.742406716708857 ] } },
{ "type": "Feature", "properties": { "id": 3592.000000, "osm_id": 2973072438.000000, "name": "Bellevue", "type": "tram_stop", "ref": "A" }, "geometry": { "type": "Point", "coordinates": [ 12.023866547813668, 57.732272241400814 ] } },
{ "type": "Feature", "properties": { "id": 3610.000000, "osm_id": 3157150233.000000, "name": "Gamlestaden", "type": "station", "ref": "Gas" }, "geometry": { "type": "Point", "coordinates": [ 12.004178379268438, 57.727351226047624 ] } },
{ "type": "Feature", "properties": { "id": 3611.000000, "osm_id": 3158586538.000000, "name": "Partille", "type": "station", "ref": "P" }, "geometry": { "type": "Point", "coordinates": [ 12.103335287982731, 57.740883976359328 ] } },
{ "type": "Feature", "properties": { "id": 3612.000000, "osm_id": 3158586531.000000, "name": "Jonsered", "type": "station", "ref": "Jv" }, "geometry": { "type": "Point", "coordinates": [ 12.17374134680253, 57.749888990214771 ] } },
{ "type": "Feature", "properties": { "id": 3613.000000, "osm_id": 3158586534.000000, "name": "Lerum", "type": "station", "ref": "Lr" }, "geometry": { "type": "Point", "coordinates": [ 12.271680364985713, 57.769086733605334 ] } },
{ "type": "Feature", "properties": { "id": 3614.000000, "osm_id": 3158586522.000000, "name": "Aspedalen", "type": "station", "ref": "Asd" }, "geometry": { "type": "Point", "coordinates": [ 12.258698640988626, 57.76268161847625 ] } },
{ "type": "Feature", "properties": { "id": 3615.000000, "osm_id": 3158586523.000000, "name": "Aspen", "type": "station", "ref": "Apn" }, "geometry": { "type": "Point", "coordinates": [ 12.240725158375598, 57.754436088867372 ] } },
{ "type": "Feature", "properties": { "id": 3616.000000, "osm_id": 3158586541.000000, "name": "Sävenäs", "type": "station", "ref": "Säv" }, "geometry": { "type": "Point", "coordinates": [ 12.02547235282367, 57.724785357848162 ] } },
{ "type": "Feature", "properties": { "id": 3618.000000, "osm_id": 3168257167.000000, "name": "Lindome", "type": "station", "ref": "Ldo" }, "geometry": { "type": "Point", "coordinates": [ 12.078698276165795, 57.57598863924548 ] } },
{ "type": "Feature", "properties": { "id": 3621.000000, "osm_id": 3168257161.000000, "name": "Anneberg", "type": "station", "ref": "Ag" }, "geometry": { "type": "Point", "coordinates": [ 12.100613348746151, 57.538593867884259 ] } },
{ "type": "Feature", "properties": { "id": 3622.000000, "osm_id": 3168257166.000000, "name": "Kållered", "type": "station", "ref": "Krd" }, "geometry": { "type": "Point", "coordinates": [ 12.048510265153169, 57.610373636815169 ] } },
{ "type": "Feature", "properties": { "id": 3652.000000, "osm_id": 3395041537.000000, "name": "Olivedalsgatan", "type": "tram_stop", "ref": "D" }, "geometry": { "type": "Point", "coordinates": [ 11.95320676878481, 57.691927543036698 ] } },
{ "type": "Feature", "properties": { "id": 3653.000000, "osm_id": 3406906493.000000, "name": "Reservhållplats", "type": "tram_stop", "ref": null }, "geometry": { "type": "Point", "coordinates": [ 11.965373268879233, 57.698569866025565 ] } }
]
}
